[
	{
		"company": "Dolor Donec LLC",
		"name": "Alan Holloway",
		"address": "725-6051 Morbi Road",
		"city": "Savannah",
		"state": "GA",
		"zip": "63331",
		"latlon": "33.22501, 92.46715",
		"phone": "1-135-126-3166",
		"email": "luctus.felis@egestasAliquam.co.uk"
	},
	{
		"company": "Ante Nunc Corp.",
		"name": "Elton Berry",
		"address": "P.O. Box 661, 3142 Ullamcorper, St.",
		"city": "Juneau",
		"state": "AK",
		"zip": "99650",
		"latlon": "3.55141, -150.10133",
		"phone": "1-383-196-5743",
		"email": "risus.at@Quisquepurussapien.ca"
	},
	{
		"company": "Nunc Sed Orci Foundation",
		"name": "Emmanuel Mcdaniel",
		"address": "5028 Morbi Ave",
		"city": "Eugene",
		"state": "Oregon",
		"zip": "75947",
		"latlon": "-18.98127, -124.03229",
		"phone": "1-516-400-0250",
		"email": "ultricies@velpedeblandit.org"
	},
	{
		"company": "Pretium Et Corp.",
		"name": "Gabriel Joyce",
		"address": "3986 Ut Street",
		"city": "Cedar Rapids",
		"state": "Iowa",
		"zip": "34214",
		"latlon": "35.88654, 11.16459",
		"phone": "1-949-745-0815",
		"email": "Suspendisse@dignissimpharetra.org"
	},
	{
		"company": "Mauris Sapien Cursus Associates",
		"name": "Seth Becker",
		"address": "901-8319 Montes, St.",
		"city": "Columbia",
		"state": "Maryland",
		"zip": "61836",
		"latlon": "1.99002, 1.22779",
		"phone": "1-452-841-0623",
		"email": "vulputate@nonhendrerit.com"
	},
	{
		"company": "Ultrices A Auctor LLP",
		"name": "Griffith Valdez",
		"address": "8119 Condimentum. Avenue",
		"city": "Houston",
		"state": "Texas",
		"zip": "57072",
		"latlon": "88.28952, -31.57074",
		"phone": "1-789-309-3151",
		"email": "quis.arcu.vel@diamPellentesquehabitant.net"
	},
	{
		"company": "Mus Donec Dignissim Institute",
		"name": "Abel Sosa",
		"address": "Ap #976-8154 Orci, Rd.",
		"city": "Reno",
		"state": "Nevada",
		"zip": "80595",
		"latlon": "4.89926, -0.89512",
		"phone": "1-762-337-7122",
		"email": "semper.auctor@habitantmorbi.net"
	},
	{
		"company": "Metus Vitae Velit Limited",
		"name": "Jameson Osborne",
		"address": "3004 Est Street",
		"city": "Chattanooga",
		"state": "TN",
		"zip": "48148",
		"latlon": "27.57765, 100.11623",
		"phone": "1-992-454-2900",
		"email": "scelerisque.neque@sapien.co.uk"
	},
	{
		"company": "Vitae Aliquet Nec Inc.",
		"name": "Ian Floyd",
		"address": "P.O. Box 289, 9511 Rhoncus Rd.",
		"city": "Great Falls",
		"state": "MT",
		"zip": "38111",
		"latlon": "15.19815, -62.79156",
		"phone": "1-220-886-8562",
		"email": "dis.parturient.montes@quisaccumsan.ca"
	},
	{
		"company": "Tempor Est Ac Corp.",
		"name": "Cooper Ortiz",
		"address": "1988 Quam Av.",
		"city": "Jacksonville",
		"state": "FL",
		"zip": "10129",
		"latlon": "-21.16584, 117.22278",
		"phone": "1-836-871-1066",
		"email": "in.consectetuer.ipsum@Sedpharetrafelis.ca"
	},
	{
		"company": "Urna Vivamus Molestie Inc.",
		"name": "Zachery Garrison",
		"address": "Ap #241-3103 Auctor St.",
		"city": "Louisville",
		"state": "Kentucky",
		"zip": "85986",
		"latlon": "52.50751, 134.49183",
		"phone": "1-286-299-2909",
		"email": "magnis.dis.parturient@purussapien.co.uk"
	},
	{
		"company": "Eu Company",
		"name": "Xavier Mclaughlin",
		"address": "P.O. Box 718, 5738 Ultricies St.",
		"city": "Saint Paul",
		"state": "Minnesota",
		"zip": "81066",
		"latlon": "4.24408, -128.01765",
		"phone": "1-744-351-7432",
		"email": "ac.metus@fringillaeuismodenim.edu"
	},
	{
		"company": "Donec Nibh Limited",
		"name": "Hyatt Slater",
		"address": "Ap #118-9690 Quis, Av.",
		"city": "South Bend",
		"state": "IN",
		"zip": "60012",
		"latlon": "54.11752, -87.4554",
		"phone": "1-521-168-9129",
		"email": "risus@ut.org"
	},
	{
		"company": "Scelerisque Neque LLC",
		"name": "Jelani Watts",
		"address": "999 Purus. Av.",
		"city": "Gaithersburg",
		"state": "Maryland",
		"zip": "11326",
		"latlon": "51.32096, -13.9551",
		"phone": "1-356-853-1049",
		"email": "massa.Vestibulum@risusvariusorci.net"
	},
	{
		"company": "Ultrices Institute",
		"name": "Thane Blackburn",
		"address": "Ap #502-8554 Integer Avenue",
		"city": "Augusta",
		"state": "Georgia",
		"zip": "69565",
		"latlon": "26.909, -74.45581",
		"phone": "1-264-927-0779",
		"email": "posuere.cubilia@nisiMauris.co.uk"
	},
	{
		"company": "Congue Turpis Institute",
		"name": "Chaney Porter",
		"address": "5305 Ac Road",
		"city": "South Bend",
		"state": "IN",
		"zip": "76562",
		"latlon": "-37.6679, -112.18159",
		"phone": "1-897-646-2392",
		"email": "Donec@liberoettristique.ca"
	},
	{
		"company": "Nisi Mauris Nulla Limited",
		"name": "Clayton Moreno",
		"address": "419-4809 Aenean Rd.",
		"city": "Oklahoma City",
		"state": "OK",
		"zip": "39526",
		"latlon": "65.05083, 48.29396",
		"phone": "1-173-250-2078",
		"email": "in.molestie@etmalesuadafames.net"
	},
	{
		"company": "Cras Inc.",
		"name": "Blake Patel",
		"address": "9421 Eu Rd.",
		"city": "Rockville",
		"state": "MD",
		"zip": "11692",
		"latlon": "67.60865, 162.58726",
		"phone": "1-825-104-8189",
		"email": "tristique@ante.net"
	},
	{
		"company": "Luctus Ltd",
		"name": "Aladdin Wiggins",
		"address": "Ap #739-4550 Auctor St.",
		"city": "Norman",
		"state": "Oklahoma",
		"zip": "98323",
		"latlon": "35.14875, 37.584",
		"phone": "1-760-311-1453",
		"email": "In.lorem.Donec@elitafeugiat.edu"
	},
	{
		"company": "Neque Consulting",
		"name": "Keefe Weiss",
		"address": "Ap #713-1161 Nulla Ave",
		"city": "Independence",
		"state": "MO",
		"zip": "39898",
		"latlon": "-10.56479, 144.30065",
		"phone": "1-471-609-3327",
		"email": "enim.commodo.hendrerit@vitae.net"
	},
	{
		"company": "Mus Donec Dignissim Inc.",
		"name": "Ira Ward",
		"address": "Ap #362-5817 Molestie. Rd.",
		"city": "Tacoma",
		"state": "WA",
		"zip": "94936",
		"latlon": "68.28274, 163.48169",
		"phone": "1-769-734-9210",
		"email": "luctus.lobortis@orciPhasellusdapibus.ca"
	},
	{
		"company": "A Enim Suspendisse Corp.",
		"name": "Aladdin Mercado",
		"address": "Ap #781-4042 Tristique St.",
		"city": "Honolulu",
		"state": "Hawaii",
		"zip": "79354",
		"latlon": "71.23978, -51.00793",
		"phone": "1-470-389-2644",
		"email": "non.arcu.Vivamus@rutrumeu.co.uk"
	},
	{
		"company": "Lectus A Sollicitudin Industries",
		"name": "Melvin Morgan",
		"address": "3244 Rutrum, Street",
		"city": "Overland Park",
		"state": "Kansas",
		"zip": "41362",
		"latlon": "-27.10537, 122.83263",
		"phone": "1-169-703-0342",
		"email": "Aliquam@neque.ca"
	},
	{
		"company": "Laoreet Limited",
		"name": "Jeremy Brock",
		"address": "P.O. Box 448, 8390 Duis Street",
		"city": "Sandy",
		"state": "Utah",
		"zip": "58810",
		"latlon": "33.46289, 169.13424",
		"phone": "1-329-223-3122",
		"email": "non.massa@lacusAliquamrutrum.ca"
	},
	{
		"company": "Dui Cras Pellentesque Associates",
		"name": "Ignatius Welch",
		"address": "3278 Metus. Rd.",
		"city": "Flint",
		"state": "Michigan",
		"zip": "68013",
		"latlon": "-27.2456, -173.77015",
		"phone": "1-119-818-3244",
		"email": "malesuada.fames@anteipsumprimis.edu"
	},
	{
		"company": "Dolor Quisque Tincidunt Corporation",
		"name": "Henry Finch",
		"address": "P.O. Box 601, 3708 Nonummy Rd.",
		"city": "Lakewood",
		"state": "CO",
		"zip": "99475",
		"latlon": "37.20856, 51.82193",
		"phone": "1-728-450-0630",
		"email": "Mauris.vestibulum@liberoettristique.edu"
	},
	{
		"company": "Ornare Lectus LLC",
		"name": "Bradley Maldonado",
		"address": "Ap #688-2611 Egestas Avenue",
		"city": "Columbus",
		"state": "Ohio",
		"zip": "81391",
		"latlon": "69.40239, 33.44212",
		"phone": "1-458-493-4412",
		"email": "Pellentesque@interdumliberodui.co.uk"
	},
	{
		"company": "Dolor Vitae Limited",
		"name": "Ira Fox",
		"address": "9905 Mauris St.",
		"city": "Fort Worth",
		"state": "Texas",
		"zip": "22260",
		"latlon": "15.66654, -40.90101",
		"phone": "1-216-806-9786",
		"email": "Pellentesque.ut.ipsum@Maurisvestibulumneque.co.uk"
	},
	{
		"company": "Sed Et Inc.",
		"name": "Adam Park",
		"address": "8577 Velit Avenue",
		"city": "Tuscaloosa",
		"state": "Alabama",
		"zip": "36668",
		"latlon": "58.80222, -68.83381",
		"phone": "1-390-277-5621",
		"email": "Ut.nec@DonecnibhQuisque.co.uk"
	},
	{
		"company": "Amet Company",
		"name": "Lucian Marquez",
		"address": "4359 Facilisis. Avenue",
		"city": "Kearney",
		"state": "Nebraska",
		"zip": "28378",
		"latlon": "-25.12412, 101.57807",
		"phone": "1-160-814-5689",
		"email": "ultricies.ornare@magna.com"
	},
	{
		"company": "Enim Etiam Gravida Inc.",
		"name": "Barrett Finley",
		"address": "P.O. Box 788, 1721 Cubilia St.",
		"city": "Fresno",
		"state": "California",
		"zip": "92425",
		"latlon": "53.51997, -15.57348",
		"phone": "1-806-856-3831",
		"email": "orci.Ut.sagittis@ridiculus.ca"
	},
	{
		"company": "Ligula Aenean Gravida Corp.",
		"name": "Scott Harrell",
		"address": "4030 Sem Avenue",
		"city": "Grand Island",
		"state": "NE",
		"zip": "56150",
		"latlon": "79.21049, 52.20376",
		"phone": "1-842-796-2163",
		"email": "sit.amet@nisl.edu"
	},
	{
		"company": "Sem Ut LLP",
		"name": "Kamal Emerson",
		"address": "393-4991 In Av.",
		"city": "Tulsa",
		"state": "Oklahoma",
		"zip": "70606",
		"latlon": "1.34759, -68.46192",
		"phone": "1-977-426-4144",
		"email": "turpis.Aliquam.adipiscing@vestibulumloremsit.edu"
	},
	{
		"company": "Amet Risus PC",
		"name": "Davis Shepard",
		"address": "8800 Cursus Road",
		"city": "Independence",
		"state": "MO",
		"zip": "97988",
		"latlon": "75.10372, 12.95088",
		"phone": "1-644-973-5414",
		"email": "Vestibulum.accumsan@sodales.co.uk"
	},
	{
		"company": "Nunc Associates",
		"name": "Kenyon Solis",
		"address": "Ap #487-6824 Gravida Street",
		"city": "South Portland",
		"state": "Maine",
		"zip": "94729",
		"latlon": "40.43798, -18.64695",
		"phone": "1-776-772-5425",
		"email": "magna.Nam.ligula@dolortempusnon.co.uk"
	},
	{
		"company": "Fusce Aliquam Foundation",
		"name": "Mason Woodard",
		"address": "717-8088 Feugiat Rd.",
		"city": "Wichita",
		"state": "Kansas",
		"zip": "44182",
		"latlon": "-35.3751, -140.68166",
		"phone": "1-358-205-3760",
		"email": "luctus.felis.purus@mi.edu"
	},
	{
		"company": "Sagittis Augue PC",
		"name": "Rigel Kennedy",
		"address": "5783 Nibh St.",
		"city": "Tucson",
		"state": "Arizona",
		"zip": "85957",
		"latlon": "-29.58532, 83.86573",
		"phone": "1-947-344-4124",
		"email": "non@utmiDuis.org"
	},
	{
		"company": "Elit Incorporated",
		"name": "Xander Spencer",
		"address": "129-8698 Mi. Av.",
		"city": "Clarksville",
		"state": "Tennessee",
		"zip": "31921",
		"latlon": "-9.16738, -36.49218",
		"phone": "1-304-801-1304",
		"email": "Duis@Nullam.ca"
	},
	{
		"company": "Orci Corp.",
		"name": "Ray Flowers",
		"address": "816-8105 Vitae St.",
		"city": "Fayetteville",
		"state": "Arkansas",
		"zip": "72884",
		"latlon": "30.9845, -89.36011",
		"phone": "1-266-539-0767",
		"email": "non.nisi.Aenean@necligula.co.uk"
	},
	{
		"company": "Nec Enim Nunc Company",
		"name": "Abdul White",
		"address": "433-229 Vel, St.",
		"city": "Lawton",
		"state": "Oklahoma",
		"zip": "68918",
		"latlon": "-18.45226, 94.14572",
		"phone": "1-468-858-7857",
		"email": "commodo.hendrerit@Aeneansedpede.net"
	},
	{
		"company": "Lacus PC",
		"name": "Roth Stark",
		"address": "134-7467 Eget Rd.",
		"city": "Baltimore",
		"state": "MD",
		"zip": "35344",
		"latlon": "-10.08005, 167.67413",
		"phone": "1-846-156-6843",
		"email": "Curabitur.dictum@famesac.net"
	},
	{
		"company": "Feugiat Placerat Velit Industries",
		"name": "Kane Wiley",
		"address": "584-9394 Mollis St.",
		"city": "Butte",
		"state": "Montana",
		"zip": "11884",
		"latlon": "-16.37162, 12.89971",
		"phone": "1-346-458-8967",
		"email": "id.libero.Donec@urnasuscipit.org"
	},
	{
		"company": "Lectus Justo Corp.",
		"name": "Nolan Torres",
		"address": "560-6949 Ac, Avenue",
		"city": "Grand Island",
		"state": "Nebraska",
		"zip": "36458",
		"latlon": "-25.65051, -130.23372",
		"phone": "1-398-488-2306",
		"email": "lectus.rutrum.urna@Suspendissedui.net"
	},
	{
		"company": "Nec Ante Maecenas Corporation",
		"name": "Sean Coffey",
		"address": "694-6483 Feugiat Rd.",
		"city": "Mesa",
		"state": "Arizona",
		"zip": "85245",
		"latlon": "35.84971, 155.73439",
		"phone": "1-331-859-2736",
		"email": "iaculis@consequatauctor.net"
	},
	{
		"company": "Turpis PC",
		"name": "Abel Bird",
		"address": "540-7163 Vestibulum St.",
		"city": "Saint Paul",
		"state": "Minnesota",
		"zip": "19871",
		"latlon": "-67.26378, -31.95933",
		"phone": "1-642-320-0803",
		"email": "nisi@sagittis.edu"
	},
	{
		"company": "Blandit Enim Foundation",
		"name": "Norman Pate",
		"address": "843-276 Molestie Road",
		"city": "Lexington",
		"state": "KY",
		"zip": "45826",
		"latlon": "-25.95882, -134.25109",
		"phone": "1-193-402-3162",
		"email": "ligula.eu@Phasellusdolor.net"
	},
	{
		"company": "Sapien Imperdiet Incorporated",
		"name": "Allen Franklin",
		"address": "263-7182 Aliquet St.",
		"city": "Indianapolis",
		"state": "Indiana",
		"zip": "58360",
		"latlon": "14.51507, 9.31157",
		"phone": "1-692-268-0873",
		"email": "non.quam@Donec.org"
	},
	{
		"company": "Neque Venenatis LLC",
		"name": "Calvin Thornton",
		"address": "P.O. Box 335, 7684 Et Avenue",
		"city": "Hillsboro",
		"state": "OR",
		"zip": "46944",
		"latlon": "-67.1387, -165.08732",
		"phone": "1-667-959-3844",
		"email": "sapien.imperdiet.ornare@ornareelit.org"
	},
	{
		"company": "Quisque Company",
		"name": "Jonas Fuller",
		"address": "Ap #405-8907 Et Road",
		"city": "Covington",
		"state": "Kentucky",
		"zip": "47595",
		"latlon": "43.47576, 54.21999",
		"phone": "1-606-643-1480",
		"email": "et.commodo@parturientmontesnascetur.com"
	},
	{
		"company": "Nunc LLP",
		"name": "Cole Calhoun",
		"address": "3056 Non, Rd.",
		"city": "Flint",
		"state": "MI",
		"zip": "19582",
		"latlon": "-18.79937, 33.06296",
		"phone": "1-844-963-1084",
		"email": "enim@massaInteger.org"
	},
	{
		"company": "Et Ultrices Posuere Corp.",
		"name": "Ronan Moreno",
		"address": "P.O. Box 222, 7745 Magna Av.",
		"city": "Missoula",
		"state": "MT",
		"zip": "41673",
		"latlon": "62.21655, -102.65955",
		"phone": "1-589-306-5209",
		"email": "ut@Phasellus.com"
	},
	{
		"company": "Facilisis PC",
		"name": "Todd Aguilar",
		"address": "P.O. Box 927, 6287 Nulla Rd.",
		"city": "Meridian",
		"state": "Idaho",
		"zip": "80619",
		"latlon": "63.66653, 138.63864",
		"phone": "1-482-638-9857",
		"email": "vel.nisl@liberodui.com"
	},
	{
		"company": "Lectus Inc.",
		"name": "Arden Cunningham",
		"address": "437-9794 Velit Rd.",
		"city": "Casper",
		"state": "Wyoming",
		"zip": "32434",
		"latlon": "-63.98111, -23.73753",
		"phone": "1-874-373-3525",
		"email": "non.hendrerit@ligula.ca"
	},
	{
		"company": "Elit Inc.",
		"name": "Thor Walker",
		"address": "P.O. Box 855, 2777 Cursus. St.",
		"city": "Oklahoma City",
		"state": "Oklahoma",
		"zip": "22797",
		"latlon": "81.24726, 153.3343",
		"phone": "1-643-647-6458",
		"email": "eget.volutpat@sitametante.ca"
	},
	{
		"company": "In Tincidunt Institute",
		"name": "Hedley Anthony",
		"address": "Ap #231-1289 Nulla Ave",
		"city": "Cincinnati",
		"state": "OH",
		"zip": "13001",
		"latlon": "-58.31473, -111.54275",
		"phone": "1-273-462-9300",
		"email": "lorem.sit.amet@Suspendisse.co.uk"
	},
	{
		"company": "Sodales Purus In Inc.",
		"name": "Bernard Maynard",
		"address": "P.O. Box 472, 6609 Tincidunt Rd.",
		"city": "Birmingham",
		"state": "Alabama",
		"zip": "36870",
		"latlon": "20.50609, 17.72796",
		"phone": "1-234-787-3418",
		"email": "primis@Aeneaneuismod.org"
	},
	{
		"company": "Varius Nam Porttitor LLP",
		"name": "Cain Vincent",
		"address": "204-7930 Felis Rd.",
		"city": "Laramie",
		"state": "Wyoming",
		"zip": "76635",
		"latlon": "-23.01423, 83.30215",
		"phone": "1-346-997-8973",
		"email": "nec.euismod@Etiamlaoreet.org"
	},
	{
		"company": "Dui Corp.",
		"name": "Blake Barry",
		"address": "937-7895 Imperdiet Rd.",
		"city": "Racine",
		"state": "WI",
		"zip": "77994",
		"latlon": "-40.26355, 49.37583",
		"phone": "1-977-569-5158",
		"email": "facilisis.vitae@magna.com"
	},
	{
		"company": "Aliquam Institute",
		"name": "Lawrence Miles",
		"address": "616-2491 Mi Road",
		"city": "Lewiston",
		"state": "ME",
		"zip": "21912",
		"latlon": "5.77723, -0.41759",
		"phone": "1-492-117-9053",
		"email": "vitae.diam.Proin@ullamcorpervelit.co.uk"
	},
	{
		"company": "Adipiscing Mauris LLP",
		"name": "Timon Camacho",
		"address": "Ap #530-1309 Eu, Rd.",
		"city": "Evansville",
		"state": "IN",
		"zip": "26809",
		"latlon": "27.15078, 18.77044",
		"phone": "1-135-192-7632",
		"email": "sed@a.co.uk"
	},
	{
		"company": "Facilisis Magna Institute",
		"name": "Robert Pugh",
		"address": "Ap #638-3166 Metus Road",
		"city": "Pocatello",
		"state": "Idaho",
		"zip": "95013",
		"latlon": "37.30797, 45.24457",
		"phone": "1-811-396-8754",
		"email": "lacinia.orci@nonloremvitae.org"
	},
	{
		"company": "Sed Est Industries",
		"name": "Stuart Rollins",
		"address": "662-1335 Odio Avenue",
		"city": "Madison",
		"state": "WI",
		"zip": "24023",
		"latlon": "-44.18834, 22.53891",
		"phone": "1-922-549-7684",
		"email": "nec.mollis.vitae@orci.ca"
	},
	{
		"company": "Netus Et Corp.",
		"name": "Oleg Bennett",
		"address": "Ap #124-2695 Euismod St.",
		"city": "South Portland",
		"state": "Maine",
		"zip": "47752",
		"latlon": "-3.37494, 84.67063",
		"phone": "1-950-818-5358",
		"email": "dignissim@amet.edu"
	},
	{
		"company": "Sit Amet Institute",
		"name": "Jerome Moon",
		"address": "Ap #516-4385 Eu St.",
		"city": "San Francisco",
		"state": "California",
		"zip": "93104",
		"latlon": "-71.48919, -169.0626",
		"phone": "1-842-417-5819",
		"email": "semper.auctor@acmetusvitae.edu"
	},
	{
		"company": "Non Egestas Incorporated",
		"name": "Curran Kelly",
		"address": "915-4057 Et Street",
		"city": "Bellevue",
		"state": "NE",
		"zip": "20701",
		"latlon": "-79.00103, -32.74669",
		"phone": "1-621-671-2992",
		"email": "magna.Phasellus@non.org"
	},
	{
		"company": "Sed Orci Incorporated",
		"name": "Leo Trevino",
		"address": "374-1260 At Ave",
		"city": "Newark",
		"state": "DE",
		"zip": "83434",
		"latlon": "-69.09523, -165.92996",
		"phone": "1-924-678-3415",
		"email": "leo.Vivamus@loremsit.edu"
	},
	{
		"company": "Aenean Sed LLP",
		"name": "Cadman Duncan",
		"address": "317-9342 Nibh. St.",
		"city": "Bloomington",
		"state": "MN",
		"zip": "71635",
		"latlon": "77.50489, -160.20923",
		"phone": "1-193-794-9943",
		"email": "scelerisque.mollis@ultricies.ca"
	},
	{
		"company": "Nibh Lacinia LLC",
		"name": "Rigel Jenkins",
		"address": "Ap #212-790 Enim. Av.",
		"city": "Birmingham",
		"state": "Alabama",
		"zip": "35599",
		"latlon": "89.54285, 1.29553",
		"phone": "1-736-462-7731",
		"email": "tempus.scelerisque.lorem@laoreetlibero.ca"
	},
	{
		"company": "A Tortor Nunc Associates",
		"name": "Laith Joseph",
		"address": "8920 Elit Av.",
		"city": "Cincinnati",
		"state": "OH",
		"zip": "71645",
		"latlon": "36.39843, 42.7984",
		"phone": "1-667-811-7649",
		"email": "pharetra.Nam@Donectempor.co.uk"
	},
	{
		"company": "Sit Amet Foundation",
		"name": "Alden Morton",
		"address": "Ap #392-8345 Porta St.",
		"city": "Covington",
		"state": "Kentucky",
		"zip": "38730",
		"latlon": "-76.51675, 85.20716",
		"phone": "1-441-835-8593",
		"email": "adipiscing@placerat.org"
	},
	{
		"company": "A Company",
		"name": "Ian Stout",
		"address": "Ap #725-7924 Eu, Avenue",
		"city": "Chandler",
		"state": "AZ",
		"zip": "86376",
		"latlon": "20.41278, -95.32194",
		"phone": "1-420-998-5340",
		"email": "nunc.est.mollis@eleifendnecmalesuada.net"
	},
	{
		"company": "Amet Consectetuer Industries",
		"name": "Chester Barber",
		"address": "5999 Orci Rd.",
		"city": "Kenosha",
		"state": "Wisconsin",
		"zip": "95351",
		"latlon": "-33.87352, 37.37183",
		"phone": "1-462-502-0869",
		"email": "eu.arcu@turpisegestasFusce.co.uk"
	},
	{
		"company": "Dictum PC",
		"name": "Holmes Mcgowan",
		"address": "P.O. Box 167, 7639 Ac Rd.",
		"city": "Portland",
		"state": "Maine",
		"zip": "63119",
		"latlon": "-61.28348, -146.99001",
		"phone": "1-460-913-8150",
		"email": "Lorem@ipsumPhasellusvitae.co.uk"
	},
	{
		"company": "Interdum Foundation",
		"name": "Peter Grant",
		"address": "Ap #416-5596 Dui. Street",
		"city": "Jonesboro",
		"state": "AR",
		"zip": "71780",
		"latlon": "20.982, -32.3904",
		"phone": "1-978-994-4270",
		"email": "neque.venenatis@diam.org"
	},
	{
		"company": "Porta Corporation",
		"name": "Axel Alford",
		"address": "P.O. Box 470, 224 Euismod Ave",
		"city": "Rutland",
		"state": "VT",
		"zip": "19962",
		"latlon": "-64.00491, 153.98701",
		"phone": "1-787-324-0579",
		"email": "odio.sagittis@feugiat.edu"
	},
	{
		"company": "Velit Egestas Lacinia PC",
		"name": "Brenden Clayton",
		"address": "190-1519 Ac Avenue",
		"city": "San Antonio",
		"state": "Texas",
		"zip": "55836",
		"latlon": "71.52633, -103.16599",
		"phone": "1-749-663-8833",
		"email": "euismod.urna.Nullam@metusIn.net"
	},
	{
		"company": "Felis Purus Industries",
		"name": "Colby Briggs",
		"address": "Ap #283-8073 In Av.",
		"city": "St. Petersburg",
		"state": "FL",
		"zip": "80845",
		"latlon": "64.0707, -143.36091",
		"phone": "1-397-696-5478",
		"email": "risus.Donec.egestas@gravidanunc.org"
	},
	{
		"company": "Cubilia PC",
		"name": "Louis Walter",
		"address": "312-5246 Egestas. St.",
		"city": "Sterling Heights",
		"state": "Michigan",
		"zip": "62724",
		"latlon": "27.91172, -43.18858",
		"phone": "1-519-323-1687",
		"email": "elit@enimdiamvel.org"
	},
	{
		"company": "Nascetur PC",
		"name": "Jason Vance",
		"address": "8840 Sed Rd.",
		"city": "Stamford",
		"state": "Connecticut",
		"zip": "39149",
		"latlon": "52.15666, 105.98891",
		"phone": "1-444-192-0749",
		"email": "non.magna.Nam@dictumplacerat.co.uk"
	},
	{
		"company": "Aliquet PC",
		"name": "Keane Donovan",
		"address": "2626 Auctor Street",
		"city": "Provo",
		"state": "Utah",
		"zip": "32322",
		"latlon": "-43.11673, -25.74678",
		"phone": "1-143-434-9952",
		"email": "magna.Sed.eu@Integerinmagna.com"
	},
	{
		"company": "Penatibus Et Magnis Foundation",
		"name": "Byron Booth",
		"address": "8391 Ipsum Road",
		"city": "Newark",
		"state": "Delaware",
		"zip": "55874",
		"latlon": "70.39383, 18.85968",
		"phone": "1-791-408-3667",
		"email": "odio.vel@aliquetlobortisnisi.org"
	},
	{
		"company": "Et Netus Industries",
		"name": "Talon Raymond",
		"address": "737-6245 Curae; Rd.",
		"city": "Fort Wayne",
		"state": "IN",
		"zip": "17365",
		"latlon": "-65.75833, -73.44697",
		"phone": "1-836-583-0426",
		"email": "elementum.sem@venenatisvelfaucibus.net"
	},
	{
		"company": "Nec Luctus Ltd",
		"name": "Wesley Carney",
		"address": "736-8601 A, Street",
		"city": "Austin",
		"state": "Texas",
		"zip": "35051",
		"latlon": "63.40194, 15.26049",
		"phone": "1-659-784-6762",
		"email": "volutpat.Nulla.dignissim@lobortis.co.uk"
	},
	{
		"company": "Odio Vel Incorporated",
		"name": "Norman Ford",
		"address": "P.O. Box 864, 9638 Ut Rd.",
		"city": "Grand Rapids",
		"state": "Michigan",
		"zip": "42731",
		"latlon": "-33.37459, 173.12106",
		"phone": "1-591-310-7405",
		"email": "Curabitur.egestas@Crassedleo.ca"
	},
	{
		"company": "Neque Institute",
		"name": "Chester Colon",
		"address": "3607 Sit Rd.",
		"city": "Springfield",
		"state": "IL",
		"zip": "47127",
		"latlon": "-42.41419, -3.57827",
		"phone": "1-124-241-6997",
		"email": "et.rutrum@duiaugue.co.uk"
	},
	{
		"company": "Morbi Tristique Company",
		"name": "Leroy Montoya",
		"address": "P.O. Box 139, 950 Luctus Avenue",
		"city": "Little Rock",
		"state": "Arkansas",
		"zip": "71629",
		"latlon": "39.16027, -75.18908",
		"phone": "1-622-614-0719",
		"email": "malesuada.augue.ut@loremipsumsodales.org"
	},
	{
		"company": "Ac Mattis Institute",
		"name": "James Meadows",
		"address": "1898 Porttitor St.",
		"city": "San Jose",
		"state": "CA",
		"zip": "93285",
		"latlon": "-84.72713, -54.33944",
		"phone": "1-803-576-6677",
		"email": "Nunc.sollicitudin.commodo@Donec.com"
	},
	{
		"company": "Velit Pellentesque Industries",
		"name": "Burke Black",
		"address": "Ap #762-1368 Tempor, Ave",
		"city": "Rock Springs",
		"state": "WY",
		"zip": "81270",
		"latlon": "40.53109, -117.36345",
		"phone": "1-367-384-8863",
		"email": "vel.nisl@pharetra.co.uk"
	},
	{
		"company": "Tellus Suspendisse Company",
		"name": "Marsden Scott",
		"address": "968 Accumsan Rd.",
		"city": "Kearney",
		"state": "Nebraska",
		"zip": "20397",
		"latlon": "-30.65153, 175.3696",
		"phone": "1-102-561-2468",
		"email": "massa.rutrum@adipiscingligula.edu"
	},
	{
		"company": "Pretium LLC",
		"name": "Brendan Hall",
		"address": "118-1855 Venenatis Ave",
		"city": "Racine",
		"state": "Wisconsin",
		"zip": "59260",
		"latlon": "37.00747, -102.17668",
		"phone": "1-388-390-9815",
		"email": "primis.in@cursusNuncmauris.net"
	},
	{
		"company": "Ipsum LLP",
		"name": "Merritt Roberson",
		"address": "510-796 Consectetuer St.",
		"city": "Dover",
		"state": "DE",
		"zip": "74535",
		"latlon": "-50.36419, -1.1192",
		"phone": "1-941-822-6845",
		"email": "placerat@pedeSuspendissedui.org"
	},
	{
		"company": "Neque Corporation",
		"name": "Oleg Ellison",
		"address": "221-2945 Ornare. Rd.",
		"city": "Lawton",
		"state": "Oklahoma",
		"zip": "28915",
		"latlon": "-86.9475, -109.37208",
		"phone": "1-932-341-9390",
		"email": "ac.urna@nullaInteger.ca"
	},
	{
		"company": "Sagittis Company",
		"name": "Rooney Klein",
		"address": "4413 Sed Street",
		"city": "Portland",
		"state": "Oregon",
		"zip": "13180",
		"latlon": "-18.20638, -36.9",
		"phone": "1-287-588-6958",
		"email": "placerat.orci@egetvolutpat.org"
	},
	{
		"company": "A Arcu Sed Company",
		"name": "Jermaine Phillips",
		"address": "P.O. Box 220, 5209 Per Rd.",
		"city": "Henderson",
		"state": "NV",
		"zip": "60145",
		"latlon": "-22.08666, 61.75427",
		"phone": "1-822-113-6969",
		"email": "vel@nonenimMauris.net"
	},
	{
		"company": "Mauris Company",
		"name": "Ahmed Baldwin",
		"address": "261-2334 Cursus Street",
		"city": "Gillette",
		"state": "WY",
		"zip": "78936",
		"latlon": "-65.91786, -15.41405",
		"phone": "1-680-179-6700",
		"email": "vulputate.nisi@variusNam.co.uk"
	},
	{
		"company": "Urna Institute",
		"name": "Price Alvarado",
		"address": "234-9302 Magna. St.",
		"city": "Birmingham",
		"state": "AL",
		"zip": "36430",
		"latlon": "-38.20501, 109.81787",
		"phone": "1-217-368-3043",
		"email": "vel.turpis@at.edu"
	},
	{
		"company": "Quisque Varius Nam Inc.",
		"name": "Steel Gonzales",
		"address": "P.O. Box 692, 6405 A, Av.",
		"city": "Rochester",
		"state": "MN",
		"zip": "85487",
		"latlon": "44.18012, -121.6237",
		"phone": "1-277-281-0647",
		"email": "mi.eleifend@sodales.net"
	},
	{
		"company": "Cursus Consulting",
		"name": "Lionel Cantu",
		"address": "815-7550 Ornare Rd.",
		"city": "Lansing",
		"state": "MI",
		"zip": "29703",
		"latlon": "67.51917, -24.37234",
		"phone": "1-790-727-3597",
		"email": "purus.gravida@sem.edu"
	},
	{
		"company": "Velit Aliquam Nisl Ltd",
		"name": "Mohammad Stanley",
		"address": "Ap #186-2793 Egestas Street",
		"city": "Bear",
		"state": "DE",
		"zip": "83522",
		"latlon": "47.77902, 12.05921",
		"phone": "1-115-644-7283",
		"email": "aliquet@luctusvulputatenisi.net"
	},
	{
		"company": "Elit Associates",
		"name": "Lucius Young",
		"address": "1211 Lorem, Ave",
		"city": "Salt Lake City",
		"state": "UT",
		"zip": "91434",
		"latlon": "-70.52746, -104.3914",
		"phone": "1-294-240-7756",
		"email": "primis.in.faucibus@molestiearcuSed.ca"
	}
]
